{"type":"FeatureCollection","features":[{"type":"Feature","properties":{"name":"Lafayette (LAFY)","code":"LF","address":"3601 Deer Hill Road, Lafayette CA 94549","entries":3481,"exits":3616},"geometry":{"type":"Point","coordinates":[-122.1238,37.8934]}},{"type":"Feature","properties":{"name":"12th St. Oakland City Center (12TH)","code":"12","address":"1245 Broadway, Oakland CA 94612","entries":13418,"exits":13547},"geometry":{"type":"Point","coordinates":[-122.2716,37.8037]}},{"type":"Feature","properties":{"name":"16th St. Mission (16TH)","code":"16","address":"2000 Mission Street, San Francisco CA 94110","entries":12409,"exits":12351},"geometry":{"type":"Point","coordinates":[-122.4197,37.7651]}},{"type":"Feature","properties":{"name":"19th St. Oakland (19TH)","code":"19","address":"1900 Broadway, Oakland CA 94612","entries":13108,"exits":13090},"geometry":{"type":"Point","coordinates":[-122.269,37.8079]}},{"type":"Feature","properties":{"name":"24th St. Mission (24TH)","code":"24","address":"2800 Mission Street, San Francisco CA 94110","entries":12817,"exits":12529},"geometry":{"type":"Point","coordinates":[-122.4185,37.7523]}},{"type":"Feature","properties":{"name":"Ashby (ASHB)","code":"AS","address":"3100 Adeline Street, Berkeley CA 94703","entries":5452,"exits":5341},"geometry":{"type":"Point","coordinates":[-122.2698,37.853]}},{"type":"Feature","properties":{"name":"Balboa Park (BALB)","code":"BP","address":"401 Geneva Avenue, San Francisco CA 94112","entries":11170,"exits":9817},"geometry":{"type":"Point","coordinates":[-122.4474,37.722]}},{"type":"Feature","properties":{"name":"Bay Fair (BAYF)","code":"BF","address":"15242 Hesperian Blvd., San Leandro CA 94578","entries":5564,"exits":5516},"geometry":{"type":"Point","coordinates":[-122.1269,37.6972]}},{"type":"Feature","properties":{"name":"Castro Valley (CAST)","code":"CV","address":"3301 Norbridge Dr., Castro Valley CA 94546","entries":2781,"exits":2735},"geometry":{"type":"Point","coordinates":[-122.0756,37.6908]}},{"type":"Feature","properties":{"name":"Civic Center/UN Plaza (CIVC)","code":"CC","address":"1150 Market Street, San Francisco CA 94102","entries":24798,"exits":22626},"geometry":{"type":"Point","coordinates":[-122.4138,37.7795]}},{"type":"Feature","properties":{"name":"Colma (COLM)","code":"CM","address":"365 D Street, Colma CA 94014","entries":4397,"exits":4214},"geometry":{"type":"Point","coordinates":[-122.4662,37.6846]}},{"type":"Feature","properties":{"name":"Coliseum/Oakland Airport (COLS)","code":"CL","address":"7200 San Leandro St., Oakland CA 94621","entries":5837,"exits":5902},"geometry":{"type":"Point","coordinates":[-122.1973,37.754]}},{"type":"Feature","properties":{"name":"Concord (CONC)","code":"CN","address":"1451 Oakland Avenue, Concord CA 94520","entries":6035,"exits":6008},"geometry":{"type":"Point","coordinates":[-122.0291,37.9737]}},{"type":"Feature","properties":{"name":"Daly City (DALY)","code":"DC","address":"500 John Daly Blvd., Daly City CA 94014","entries":8681,"exits":8502},"geometry":{"type":"Point","coordinates":[-122.4691,37.7061]}},{"type":"Feature","properties":{"name":"Downtown Berkeley (DBRK)","code":"BK","address":"2160 Shattuck Avenue, Berkeley CA 94704","entries":11043,"exits":11762},"geometry":{"type":"Point","coordinates":[-122.268,37.8699]}},{"type":"Feature","properties":{"name":"El Cerrito del Norte (DELN)","code":"EN","address":"6400 Cutting Blvd., El Cerrito CA 94530","entries":8176,"exits":8668},"geometry":{"type":"Point","coordinates":[-122.3173,37.9257]}},{"type":"Feature","properties":{"name":"Dublin/Pleasanton (DUBL)","code":"ED","address":"5801 Owens Dr., Pleasanton CA 94588","entries":7702,"exits":7554},"geometry":{"type":"Point","coordinates":[-121.9004,37.7017]}},{"type":"Feature","properties":{"name":"Embarcadero (EMBR)","code":"EM","address":"298 Market Street, San Francisco CA 94111","entries":40376,"exits":46951},"geometry":{"type":"Point","coordinates":[-122.3967,37.793]}},{"type":"Feature","properties":{"name":"Fremont (FRMT)","code":"FM","address":"2000 BART Way, Fremont CA 94536","entries":8748,"exits":8673},"geometry":{"type":"Point","coordinates":[-121.9764,37.5574]}},{"type":"Feature","properties":{"name":"Fruitvale (FTVL)","code":"FV","address":"3401 East 12th Street, Oakland CA 94601","entries":7701,"exits":8012},"geometry":{"type":"Point","coordinates":[-122.2243,37.775]}},{"type":"Feature","properties":{"name":"Glen Park (GLEN)","code":"GP","address":"2901 Diamond Street, San Francisco CA 94131","entries":7732,"exits":7072},"geometry":{"type":"Point","coordinates":[-122.4341,37.7329]}},{"type":"Feature","properties":{"name":"Hayward (HAYW)","code":"HY","address":"699 'B' Street, Hayward CA 94541","entries":4958,"exits":5003},"geometry":{"type":"Point","coordinates":[-122.088,37.6704]}},{"type":"Feature","properties":{"name":"Lake Merritt (LAKE)","code":"LM","address":"800 Madison Street, Oakland CA 94607","entries":6539,"exits":6604},"geometry":{"type":"Point","coordinates":[-122.2656,37.7975]}},{"type":"Feature","properties":{"name":"MacArthur (MCAR)","code":"MA","address":"555 40th Street, Oakland CA 94609","entries":9000,"exits":9228},"geometry":{"type":"Point","coordinates":[-122.2672,37.8284]}},{"type":"Feature","properties":{"name":"Millbrae (MLBR)","code":"MB","address":"200 North Rollins Road, Millbrae CA 94030","entries":6570,"exits":6149},"geometry":{"type":"Point","coordinates":[-122.3867,37.5998]}},{"type":"Feature","properties":{"name":"Montgomery St. (MONT)","code":"MT","address":"598 Market Street, San Francisco CA 94104","entries":43430,"exits":45128},"geometry":{"type":"Point","coordinates":[-122.4014,37.7893]}},{"type":"Feature","properties":{"name":"North Berkeley (NBRK)","code":"NB","address":"1750 Sacramento Street, Berkeley CA 94702","entries":4363,"exits":4563},"geometry":{"type":"Point","coordinates":[-122.2835,37.874]}},{"type":"Feature","properties":{"name":"North Concord/Martinez (NCON)","code":"NC","address":"3700 Port Chicago Highway, Concord CA 94520","entries":2800,"exits":2652},"geometry":{"type":"Point","coordinates":[-122.0246,38.0033]}},{"type":"Feature","properties":{"name":"Orinda (ORIN)","code":"OR","address":"11 Camino Pablo, Orinda CA 94563","entries":2896,"exits":2970},"geometry":{"type":"Point","coordinates":[-122.1838,37.8784]}},{"type":"Feature","properties":{"name":"Pleasant Hill/Contra Costa Centre (PHIL)","code":"PH","address":"1365 Treat Blvd., Walnut Creek CA 94597","entries":7574,"exits":7442},"geometry":{"type":"Point","coordinates":[-122.056,37.9284]}},{"type":"Feature","properties":{"name":"Pittsburg/Bay Point (PITT)","code":"WP","address":"1700 West Leland Road, Pittsburg CA 94565","entries":6262,"exits":6343},"geometry":{"type":"Point","coordinates":[-121.9452,38.0189]}},{"type":"Feature","properties":{"name":"El Cerrito Plaza (PLZA)","code":"EP","address":"6699 Fairmount Avenue, El Cerrito CA 94530","entries":4763,"exits":4952},"geometry":{"type":"Point","coordinates":[-122.2993,37.9031]}},{"type":"Feature","properties":{"name":"Powell St. (POWL)","code":"PL","address":"899 Market Street, San Francisco CA 94102","entries":29460,"exits":25621},"geometry":{"type":"Point","coordinates":[-122.4069,37.785]}},{"type":"Feature","properties":{"name":"Richmond (RICH)","code":"RM","address":"1700 Nevin Avenue, Richmond CA 94801","entries":4184,"exits":4029},"geometry":{"type":"Point","coordinates":[-122.3532,37.9369]}},{"type":"Feature","properties":{"name":"Rockridge (ROCK)","code":"RR","address":"5660 College Avenue, Oakland CA 94618","entries":5299,"exits":5775},"geometry":{"type":"Point","coordinates":[-122.2518,37.8446]}},{"type":"Feature","properties":{"name":"San Leandro (SANL)","code":"SL","address":"1401 San Leandro Blvd., San Leandro CA 94577","entries":5836,"exits":5921},"geometry":{"type":"Point","coordinates":[-122.1613,37.7226]}},{"type":"Feature","properties":{"name":"San Bruno (SBRN)","code":"SB","address":"1151 Huntington Avenue, San Bruno CA 94066","entries":3628,"exits":3634},"geometry":{"type":"Point","coordinates":[-122.416,37.6378]}},{"type":"Feature","properties":{"name":"San Francisco Int'l Airport (SFIA)","code":"SO","address":"International Terminal, Level 3, San Francisco Int'l Airport CA 94128","entries":5833,"exits":4904},"geometry":{"type":"Point","coordinates":[-122.3926,37.616]}},{"type":"Feature","properties":{"name":"South Hayward (SHAY)","code":"SH","address":"28601 Dixon Street, Hayward CA 94544","entries":3007,"exits":2829},"geometry":{"type":"Point","coordinates":[-122.0576,37.6348]}},{"type":"Feature","properties":{"name":"South San Francisco (SSAN)","code":"SS","address":"1333 Mission Road, South San Francisco CA 94080","entries":3542,"exits":3441},"geometry":{"type":"Point","coordinates":[-122.4441,37.6642]}},{"type":"Feature","properties":{"name":"Union City (UCTY)","code":"UC","address":"10 Union Square, Union City CA 94587","entries":4772,"exits":4770},"geometry":{"type":"Point","coordinates":[-122.0179,37.5912]}},{"type":"Feature","properties":{"name":"Walnut Creek (WCRK)","code":"WC","address":"200 Ygnacio Valley Road, Walnut Creek CA 94596","entries":6719,"exits":6917},"geometry":{"type":"Point","coordinates":[-122.0674,37.9056]}},{"type":"Feature","properties":{"name":"West Dublin/Pleasanton (WDUB)","code":"WD","address":"6501 Golden Gate Drive, Dublin CA 94568","entries":3303,"exits":3447},"geometry":{"type":"Point","coordinates":[-121.9281,37.6998]}},{"type":"Feature","properties":{"name":"West Oakland (WOAK)","code":"OW","address":"1451 7th Street, Oakland CA 94607","entries":7312,"exits":6838},"geometry":{"type":"Point","coordinates":[-122.2946,37.8047]}}]}